[
  {
    "name": "La Canasta de Juan",
    "image": "/img/panaderia.jpeg",
    "category": "Panaderia",
    "url": "/negocios/panaderia.html",
    "hours": "Mon-Sat 06:00-20:00",
    "latitude": -34.6522,
    "longitude": -58.6428,
    "address": "Av. Rivadavia 1234, Castelar",
    "whatsapp": "541155554444"
  },
  {
    "name": "El Abuelo",
    "image": "/img/panaderia-1.jpeg",
    "category": "Panaderia",
    "url": "/negocios/basico-panaderia.html",
    "hours": "Mon-Sat 06:00-20:00",
    "latitude": -34.6492,
    "longitude": -58.6177,
    "address": "Calle Mitre 567, Castelar",
    "whatsapp": "541155554445"
  },
  {
    "name": "Medialunas Del Abuelo",
    "image": "/img/panaderia-3.jpeg",
    "category": "Panaderia",
    "url": "/negocios/basico-panaderia-1.html",
    "hours": "Mon-Sat 06:00-20:00",
    "latitude": -34.6446,
    "longitude": -58.5901,
    "address": "Av. Santa Rosa 890, Castelar",
    "whatsapp": "541155554446"
  },
  {
    "name": "El Molino",
    "image": "/img/panaderia-4.jpeg",
    "category": "Panaderia",
    "url": "/negocios/panaderia-4.html",
    "hours": "Mon-Sat 08:00-20:00",
    "latitude": -34.6500,
    "longitude": -58.6400,
    "address": "Calle Buenos Aires 234, Castelar",
    "whatsapp": "541155554447"
  },
  {
    "name": "Granier",
    "image": "/img/panaderia-5.jpeg",
    "category": "Panaderia",
    "url": "/negocios/panaderia-5.html",
    "hours": "Mon-Sat 07:00-21:00",
    "latitude": -34.6480,
    "longitude": -58.6450,
    "address": "Av. Colón 345, Castelar",
    "whatsapp": "541155554448"
  },
  {
    "name": "Pan Dulce",
    "image": "/img/panaderia-2.jpeg",
    "category": "Panaderia",
    "url": "/negocios/panaderia-6.html",
    "hours": "Mon-Sat 07:00-20:00",
    "latitude": -34.6550,
    "longitude": -58.6380,
    "address": "Calle Alberdi 678, Castelar",
    "whatsapp": "541155554449"
  },
  {
    "name": "Sabor a Pan",
    "image": "/img/panaderia-3.jpeg",
    "category": "Panaderia",
    "url": "/negocios/panaderia-7.html",
    "hours": "Mon-Sat 06:30-20:30",
    "latitude": -34.6470,
    "longitude": -58.6430,
    "address": "Av. San Martín 901, Castelar",
    "whatsapp": "541155554450"
  },
  {
    "name": "La Espiga",
    "image": "/img/panaderia-4.jpeg",
    "category": "Panaderia",
    "url": "/negocios/panaderia-8.html",
    "hours": "Mon-Sat 07:00-19:00",
    "latitude": -34.6510,
    "longitude": -58.6460,
    "address": "Calle Independencia 123, Castelar",
    "whatsapp": "541155554451"
  },
  {
    "name": "Pasta Fresca",
    "image": "/img/pastas-1.jpeg",
    "category": "Fabrica de Pastas",
    "url": "/negocios/pastas.html",
    "hours": "Mon-Fri 09:00-19:00",
    "latitude": -34.6530,
    "longitude": -58.6415,
    "address": "Calle Mitre 456, Castelar",
    "whatsapp": "541155554452"
  },
  {
    "name": "La Nonna",
    "image": "/img/pastas-2.jpeg",
    "category": "Fabrica de Pastas",
    "url": "/negocios/pastas-2.html",
    "hours": "Mon-Fri 09:00-18:00",
    "latitude": -34.6505,
    "longitude": -58.6390,
    "address": "Av. Rivadavia 789, Castelar",
    "whatsapp": "541155554453"
  },
  {
    "name": "Pastas Caseras",
    "image": "/img/pastas-3.jpeg",
    "category": "Fabrica de Pastas",
    "url": "/negocios/pastas-3.html",
    "hours": "Mon-Fri 08:00-19:00",
    "latitude": -34.6540,
    "longitude": -58.6440,
    "address": "Calle Buenos Aires 567, Castelar",
    "whatsapp": "541155554454"
  },
  {
    "name": "Sorrentinos del Sur",
    "image": "/img/pastas-4.jpeg",
    "category": "Fabrica de Pastas",
    "url": "/negocios/pastas-4.html",
    "hours": "Mon-Fri 09:00-20:00",
    "latitude": -34.6495,
    "longitude": -58.6420,
    "address": "Av. Colón 234, Castelar",
    "whatsapp": "541155554455"
  },
  {
    "name": "Ravioles El Tano",
    "image": "/img/pastas-1.jpeg",
    "category": "Fabrica de Pastas",
    "url": "/negocios/pastas-5.html",
    "hours": "Mon-Fri 08:30-19:30",
    "latitude": -34.6525,
    "longitude": -58.6405,
    "address": "Calle Alberdi 890, Castelar",
    "whatsapp": "541155554456"
  },
  {
    "name": "Pasta Rápida",
    "image": "/img/pastas-2.jpeg",
    "category": "Fabrica de Pastas",
    "url": "/negocios/pastas-6.html",
    "hours": "Mon-Fri 09:00-18:30",
    "latitude": -34.6518,
    "longitude": -58.6455,
    "address": "Av. San Martín 345, Castelar",
    "whatsapp": "541155554457"
  },
  {
    "name": "Fideos Don Pepe",
    "image": "/img/pastas-3.jpeg",
    "category": "Fabrica de Pastas",
    "url": "/negocios/pastas-7.html",
    "hours": "Mon-Fri 08:00-18:00",
    "latitude": -34.6535,
    "longitude": -58.6385,
    "address": "Calle Independencia 678, Castelar",
    "whatsapp": "541155554458"
  },
  {
    "name": "La Italiana",
    "image": "/img/pastas-4.jpeg",
    "category": "Fabrica de Pastas",
    "url": "/negocios/pastas-8.html",
    "hours": "Mon-Fri 09:00-19:00",
    "latitude": -34.6508,
    "longitude": -58.6435,
    "address": "Av. Rivadavia 901, Castelar",
    "whatsapp": "541155554459"
  },
  {
    "name": "Frutas Frescas",
    "image": "/img/verduleria.jpeg",
    "category": "Verduleria",
    "url": "/negocios/verduleria.html",
    "hours": "Mon-Sat 08:00-18:00",
    "latitude": -34.6525,
    "longitude": -58.6435,
    "address": "Calle Mitre 123, Castelar",
    "whatsapp": "541155554460"
  },
  {
    "name": "El Huerto",
    "image": "/img/verduleria-2.jpeg",
    "category": "Verduleria",
    "url": "/negocios/verduleria-2.html",
    "hours": "Mon-Sat 08:00-19:00",
    "latitude": -34.6498,
    "longitude": -58.6410,
    "address": "Av. Santa Rosa 456, Castelar",
    "whatsapp": "541155554461"
  },
  {
    "name": "Verde Natural",
    "image": "/img/verduleria-3.jpeg",
    "category": "Verduleria",
    "url": "/negocios/verduleria-3.html",
    "hours": "Mon-Sat 07:30-18:30",
    "latitude": -34.6545,
    "longitude": -58.6395,
    "address": "Calle Buenos Aires 789, Castelar",
    "whatsapp": "541155554462"
  },
  {
    "name": "La Huerta",
    "image": "/img/verduleria-4.jpeg",
    "category": "Verduleria",
    "url": "/negocios/verduleria-4.html",
    "hours": "Mon-Sat 08:00-18:00",
    "latitude": -34.6512,
    "longitude": -58.6445,
    "address": "Av. Colón 567, Castelar",
    "whatsapp": "541155554463"
  },
  {
    "name": "Frutiverde",
    "image": "/img/verduleria-1.jpeg",
    "category": "Verduleria",
    "url": "/negocios/verduleria-5.html",
    "hours": "Mon-Sat 08:30-19:00",
    "latitude": -34.6502,
    "longitude": -58.6402,
    "address": "Calle Alberdi 234, Castelar",
    "whatsapp": "541155554464"
  },
  {
    "name": "El Campo",
    "image": "/img/verduleria-2.jpeg",
    "category": "Verduleria",
    "url": "/negocios/verduleria-6.html",
    "hours": "Mon-Sat 07:00-18:00",
    "latitude": -34.6538,
    "longitude": -58.6428,
    "address": "Av. San Martín 678, Castelar",
    "whatsapp": "541155554465"
  },
  {
    "name": "Verde Fresco",
    "image": "/img/verduleria-3.jpeg",
    "category": "Verduleria",
    "url": "/negocios/verduleria-7.html",
    "hours": "Mon-Sat 08:00-19:00",
    "latitude": -34.6520,
    "longitude": -58.6458,
    "address": "Calle Independencia 901, Castelar",
    "whatsapp": "541155554466"
  },
  {
    "name": "Frutas del Sol",
    "image": "/img/verduleria-4.jpeg",
    "category": "Verduleria",
    "url": "/negocios/verduleria-8.html",
    "hours": "Mon-Sat 08:00-18:30",
    "latitude": -34.6490,
    "longitude": -58.6398,
    "address": "Av. Rivadavia 123, Castelar",
    "whatsapp": "541155554467"
  },
  {
    "name": "Fiambrería El Sabor",
    "image": "/img/fiambreria.jpeg",
    "category": "Fiambreria",
    "url": "/negocios/fiambreria.html",
    "hours": "Mon-Fri 08:00-20:00",
    "latitude": -34.6528,
    "longitude": -58.6450,
    "address": "Calle Mitre 345, Castelar",
    "whatsapp": "541155554468"
  },
  {
    "name": "Delicias del Campo",
    "image": "/img/fiambreria-2.jpeg",
    "category": "Fiambreria",
    "url": "/negocios/fiambreria-2.html",
    "hours": "Mon-Fri 08:00-19:00",
    "latitude": -34.6500,
    "longitude": -58.6418,
    "address": "Av. Santa Rosa 678, Castelar",
    "whatsapp": "541155554469"
  },
  {
    "name": "El Corte Fino",
    "image": "/img/fiambreria-3.jpeg",
    "category": "Fiambreria",
    "url": "/negocios/fiambreria-3.html",
    "hours": "Mon-Fri 08:30-20:00",
    "latitude": -34.6532,
    "longitude": -58.6402,
    "address": "Calle Buenos Aires 901, Castelar",
    "whatsapp": "541155554470"
  },
  {
    "name": "Sabor Artesanal",
    "image": "/img/fiambreria-4.jpeg",
    "category": "Fiambreria",
    "url": "/negocios/fiambreria-4.html",
    "hours": "Mon-Fri 08:00-19:30",
    "latitude": -34.6515,
    "longitude": -58.6448,
    "address": "Av. Colón 123, Castelar",
    "whatsapp": "541155554471"
  },
  {
    "name": "Fiambres La Tradición",
    "image": "/img/fiambreria-1.jpeg",
    "category": "Fiambreria",
    "url": "/negocios/fiambreria-5.html",
    "hours": "Mon-Fri 08:00-20:00",
    "latitude": -34.6495,
    "longitude": -58.6422,
    "address": "Calle Alberdi 456, Castelar",
    "whatsapp": "541155554472"
  },
  {
    "name": "El Gourmet",
    "image": "/img/fiambreria-2.jpeg",
    "category": "Fiambreria",
    "url": "/negocios/fiambreria-6.html",
    "hours": "Mon-Fri 08:30-19:00",
    "latitude": -34.6522,
    "longitude": -58.6390,
    "address": "Av. San Martín 789, Castelar",
    "whatsapp": "541155554473"
  },
  {
    "name": "Sabores del Sur",
    "image": "/img/fiambreria-3.jpeg",
    "category": "Fiambreria",
    "url": "/negocios/fiambreria-7.html",
    "hours": "Mon-Fri 08:00-20:00",
    "latitude": -34.6508,
    "longitude": -58.6452,
    "address": "Calle Independencia 234, Castelar",
    "whatsapp": "541155554474"
  },
  {
    "name": "Fiambres Don Juan",
    "image": "/img/fiambreria-4.jpeg",
    "category": "Fiambreria",
    "url": "/negocios/fiambreria-8.html",
    "hours": "Mon-Fri 08:00-19:00",
    "latitude": -34.6538,
    "longitude": -58.6412,
    "address": "Av. Rivadavia 567, Castelar",
    "whatsapp": "541155554475"
  },
  {
    "name": "24 Horas",
    "image": "/img/kiosco.jpeg",
    "category": "Kiosco",
    "url": "/negocios/kiosco.html",
    "hours": "Mon-Sun 00:00-23:59",
    "latitude": -34.6518,
    "longitude": -58.6442,
    "address": "Calle Mitre 678, Castelar",
    "whatsapp": "541155554476"
  },
  {
    "name": "El Rincón",
    "image": "/img/kiosco-1.jpeg",
    "category": "Kiosco",
    "url": "/negocios/kiosco-1.html",
    "hours": "Mon-Sat 09:00-19:00",
    "latitude": -34.6492,
    "longitude": -58.6408,
    "address": "Av. Santa Rosa 901, Castelar",
    "whatsapp": "541155554477"
  },
  {
    "name": "Snack Express",
    "image": "/img/kiosco-2.jpeg",
    "category": "Kiosco",
    "url": "/negocios/kiosco-2.html",
    "hours": "Mon-Fri 10:00-18:00",
    "latitude": -34.6535,
    "longitude": -58.6425,
    "address": "Calle Buenos Aires 123, Castelar",
    "whatsapp": "541155554478"
  },
  {
    "name": "Kiosco La Esquina",
    "image": "/img/kiosco-3.jpeg",
    "category": "Kiosco",
    "url": "/negocios/kiosco-3.html",
    "hours": "Mon-Sun 08:00-22:00",
    "latitude": -34.6505,
    "longitude": -58.6392,
    "address": "Av. Colón 456, Castelar",
    "whatsapp": "541155554479"
  },
  {
    "name": "Mini Market",
    "image": "/img/kiosco-4.jpeg",
    "category": "Kiosco",
    "url": "/negocios/kiosco-4.html",
    "hours": "Mon-Sat 09:00-20:00",
    "latitude": -34.6520,
    "longitude": -58.6450,
    "address": "Calle Alberdi 789, Castelar",
    "whatsapp": "541155554480"
  },
  {
    "name": "El Parador",
    "image": "/img/kiosco-5.jpeg",
    "category": "Kiosco",
    "url": "/negocios/kiosco-5.html",
    "hours": "Mon-Sun 07:00-23:00",
    "latitude": -34.6498,
    "longitude": -58.6415,
    "address": "Av. San Martín 234, Castelar",
    "whatsapp": "541155554481"
  },
  {
    "name": "Kiosco Rápido",
    "image": "/img/kiosco-1.jpeg",
    "category": "Kiosco",
    "url": "/negocios/kiosco-6.html",
    "hours": "Mon-Sat 08:00-21:00",
    "latitude": -34.6512,
    "longitude": -58.6388,
    "address": "Calle Independencia 567, Castelar",
    "whatsapp": "541155554482"
  },
  {
    "name": "Todo Dulce",
    "image": "/img/kiosco-2.jpeg",
    "category": "Kiosco",
    "url": "/negocios/kiosco-7.html",
    "hours": "Mon-Sun 09:00-22:00",
    "latitude": -34.6530,
    "longitude": -58.6448,
    "address": "Av. Rivadavia 890, Castelar",
    "whatsapp": "541155554483"
  },
  {
    "name": "Pet Shop Patitas",
    "image": "/img/veterinaria-1.jpeg",
    "category": "Mascotas",
    "url": "/negocios/veterinaria.html",
    "hours": "Mon-Fri 09:00-17:00",
    "latitude": -34.6512,
    "longitude": -58.6420,
    "address": "Calle Mitre 901, Castelar",
    "whatsapp": "541155554484"
  },
  {
    "name": "Homero Mascotas",
    "image": "/img/veterinaria-2.jpeg",
    "category": "Mascotas",
    "url": "/negocios/mascotas.html",
    "hours": "Mon-Sat 09:00-18:00",
    "latitude": -34.6490,
    "longitude": -58.6395,
    "address": "Av. Santa Rosa 123, Castelar",
    "whatsapp": "541155554485"
  },
  {
    "name": "Royal",
    "image": "/img/veterinaria-3.jpeg",
    "category": "Mascotas",
    "url": "/negocios/mascotas-2.html",
    "hours": "Mon-Sat 09:00-18:00",
    "latitude": -34.6528,
    "longitude": -58.6455,
    "address": "Calle Buenos Aires 456, Castelar",
    "whatsapp": "541155554486"
  },
  {
    "name": "Mundo Animal",
    "image": "/img/veterinaria-4.jpeg",
    "category": "Mascotas",
    "url": "/negocios/mascotas-3.html",
    "hours": "Mon-Fri 09:00-17:30",
    "latitude": -34.6502,
    "longitude": -58.6412,
    "address": "Av. Colón 789, Castelar",
    "whatsapp": "541155554487"
  },
  {
    "name": "Patitas Felices",
    "image": "/img/veterinaria.jpeg",
    "category": "Mascotas",
    "url": "/negocios/mascotas-4.html",
    "hours": "Mon-Sat 09:00-18:00",
    "latitude": -34.6535,
    "longitude": -58.6380,
    "address": "Calle Alberdi 234, Castelar",
    "whatsapp": "541155554488"
  },
  {
    "name": "Animalia",
    "image": "/img/veterinaria-1.jpeg",
    "category": "Mascotas",
    "url": "/negocios/mascotas-5.html",
    "hours": "Mon-Fri 09:00-17:00",
    "latitude": -34.6518,
    "longitude": -58.6440,
    "address": "Av. San Martín 567, Castelar",
    "whatsapp": "541155554489"
  },
  {
    "name": "Pet Corner",
    "image": "/img/veterinaria-2.jpeg",
    "category": "Mascotas",
    "url": "/negocios/mascotas-6.html",
    "hours": "Mon-Sat 09:00-18:30",
    "latitude": -34.6495,
    "longitude": -58.6405,
    "address": "Calle Independencia 890, Castelar",
    "whatsapp": "541155554490"
  },
  {
    "name": "Amigos Peludos",
    "image": "/img/veterinaria-3.jpeg",
    "category": "Mascotas",
    "url": "/negocios/mascotas-7.html",
    "hours": "Mon-Fri 09:00-17:00",
    "latitude": -34.6522,
    "longitude": -58.6458,
    "address": "Av. Rivadavia 123, Castelar",
    "whatsapp": "541155554491"
  },
  {
    "name": "Corte Clásico",
    "image": "/img/barberia.jpeg",
    "category": "Barberia",
    "url": "/negocios/barberia.html",
    "hours": "Tue-Sat 09:00-20:00",
    "latitude": -34.6533,
    "longitude": -58.6408,
    "address": "Calle Mitre 456, Castelar",
    "whatsapp": "541155554492"
  },
  {
    "name": "Barsovia",
    "image": "/img/barberia-2.jpeg",
    "category": "Barberia",
    "url": "/negocios/barberia-2.html",
    "hours": "Mon-Fri 09:00-19:00",
    "latitude": -34.6505,
    "longitude": -58.6428,
    "address": "Av. Santa Rosa 789, Castelar",
    "whatsapp": "541155554493"
  },
  {
    "name": "Estilo Urbano",
    "image": "/img/barberia-3.jpeg",
    "category": "Barberia",
    "url": "/negocios/barberia-3.html",
    "hours": "Mon-Sat 09:00-17:00",
    "latitude": -34.6520,
    "longitude": -58.6398,
    "address": "Calle Buenos Aires 234, Castelar",
    "whatsapp": "541155554494"
  },
  {
    "name": "Corte Moderno",
    "image": "/img/barberia-4.jpeg",
    "category": "Barberia",
    "url": "/negocios/barberia-4.html",
    "hours": "Mon-Sat 10:00-18:00",
    "latitude": -34.6498,
    "longitude": -58.6445,
    "address": "Av. Colón 567, Castelar",
    "whatsapp": "541155554495"
  },
  {
    "name": "La Navaja",
    "image": "/img/barberia-1.jpeg",
    "category": "Barberia",
    "url": "/negocios/barberia-5.html",
    "hours": "Tue-Sat 09:00-19:00",
    "latitude": -34.6515,
    "longitude": -58.6410,
    "address": "Calle Alberdi 901, Castelar",
    "whatsapp": "541155554496"
  },
  {
    "name": "Barber Shop",
    "image": "/img/barberia-2.jpeg",
    "category": "Barberia",
    "url": "/negocios/barberia-6.html",
    "hours": "Mon-Sat 09:00-18:00",
    "latitude": -34.6538,
    "longitude": -58.6385,
    "address": "Av. San Martín 123, Castelar",
    "whatsapp": "541155554497"
  },
  {
    "name": "El Corte Perfecto",
    "image": "/img/barberia-3.jpeg",
    "category": "Barberia",
    "url": "/negocios/barberia-7.html",
    "hours": "Tue-Sat 10:00-19:00",
    "latitude": -34.6502,
    "longitude": -58.6450,
    "address": "Calle Independencia 456, Castelar",
    "whatsapp": "541155554498"
  },
  {
    "name": "Estilo & Corte",
    "image": "/img/barberia-4.jpeg",
    "category": "Barberia",
    "url": "/negocios/barberia-8.html",
    "hours": "Mon-Sat 09:00-18:00",
    "latitude": -34.6528,
    "longitude": -58.6402,
    "address": "Av. Rivadavia 789, Castelar",
    "whatsapp": "541155554499"
  },
  {
    "name": "Ferretería El Martillo",
    "image": "/img/ferreteria.jpeg",
    "category": "Ferreteria",
    "url": "/negocios/ferreteria.html",
    "hours": "Mon-Sat 08:00-20:00",
    "latitude": -34.6537,
    "longitude": -58.6425,
    "address": "Calle Mitre 234, Castelar",
    "whatsapp": "541155554500"
  },
  {
    "name": "Herramientas Ya",
    "image": "/img/ferreteria-2.jpeg",
    "category": "Ferreteria",
    "url": "/negocios/ferreteria-2.html",
    "hours": "Mon-Sat 08:00-17:00",
    "latitude": -34.6500,
    "longitude": -58.6390,
    "address": "Av. Santa Rosa 567, Castelar",
    "whatsapp": "541155554501"
  },
  {
    "name": "El Tornillo",
    "image": "/img/ferreteria-3.jpeg",
    "category": "Ferreteria",
    "url": "/negocios/ferreteria-3.html",
    "hours": "Mon-Sat 08:00-18:00",
    "latitude": -34.6525,
    "longitude": -58.6440,
    "address": "Calle Buenos Aires 890, Castelar",
    "whatsapp": "541155554502"
  },
  {
    "name": "Ferretools",
    "image": "/img/ferreteria-4.jpeg",
    "category": "Ferreteria",
    "url": "/negocios/ferreteria-4.html",
    "hours": "Mon-Sat 08:30-19:00",
    "latitude": -34.6495,
    "longitude": -58.6415,
    "address": "Av. Colón 123, Castelar",
    "whatsapp": "541155554503"
  },
  {
    "name": "La Herramienta",
    "image": "/img/ferreteria-1.jpeg",
    "category": "Ferreteria",
    "url": "/negocios/ferreteria-5.html",
    "hours": "Mon-Sat 08:00-18:30",
    "latitude": -34.6518,
    "longitude": -58.6388,
    "address": "Calle Alberdi 456, Castelar",
    "whatsapp": "541155554504"
  },
  {
    "name": "Ferretería Central",
    "image": "/img/ferreteria-2.jpeg",
    "category": "Ferreteria",
    "url": "/negocios/ferreteria-6.html",
    "hours": "Mon-Sat 08:00-19:00",
    "latitude": -34.6532,
    "longitude": -58.6455,
    "address": "Av. San Martín 789, Castelar",
    "whatsapp": "541155554505"
  },
  {
    "name": "Tools & More",
    "image": "/img/ferreteria-3.jpeg",
    "category": "Ferreteria",
    "url": "/negocios/ferreteria-7.html",
    "hours": "Mon-Sat 08:00-18:00",
    "latitude": -34.6508,
    "longitude": -58.6408,
    "address": "Calle Independencia 234, Castelar",
    "whatsapp": "541155554506"
  },
  {
    "name": "El Clavo",
    "image": "/img/ferreteria-4.jpeg",
    "category": "Ferreteria",
    "url": "/negocios/ferreteria-8.html",
    "hours": "Mon-Sat 08:30-19:00",
    "latitude": -34.6520,
    "longitude": -58.6422,
    "address": "Av. Rivadavia 567, Castelar",
    "whatsapp": "541155554507"
  },
  {
    "name": "Tienda Poquita Cosa",
    "image": "/img/ropa.jpeg",
    "category": "Ropa",
    "url": "/negocios/tienda.html",
    "hours": "Mon-Sat 10:00-21:00",
    "latitude": -34.6515,
    "longitude": -58.6432,
    "address": "Calle Mitre 890, Castelar",
    "whatsapp": "541155554508"
  },
  {
    "name": "Moda Urbana",
    "image": "/img/ropa-2.jpeg",
    "category": "Ropa",
    "url": "/negocios/tienda-2.html",
    "hours": "Mon-Sat 10:00-20:00",
    "latitude": -34.6490,
    "longitude": -58.6400,
    "address": "Av. Santa Rosa 123, Castelar",
    "whatsapp": "541155554509"
  },
  {
    "name": "Estilo Libre",
    "image": "/img/ropa-3.jpeg",
    "category": "Ropa",
    "url": "/negocios/tienda-3.html",
    "hours": "Mon-Sat 10:00-21:00",
    "latitude": -34.6528,
    "longitude": -58.6450,
    "address": "Calle Buenos Aires 456, Castelar",
    "whatsapp": "541155554510"
  },
  {
    "name": "Tendencia",
    "image": "/img/ropa-5.jpeg",
    "category": "Ropa",
    "url": "/negocios/tienda-4.html",
    "hours": "Mon-Sat 10:00-20:30",
    "latitude": -34.6505,
    "longitude": -58.6418,
    "address": "Av. Colón 789, Castelar",
    "whatsapp": "541155554511"
  },
  {
    "name": "Ropa & Estilo",
    "image": "/img/ropa.jpeg",
    "category": "Ropa",
    "url": "/negocios/tienda-5.html",
    "hours": "Mon-Sat 10:00-21:00",
    "latitude": -34.6535,
    "longitude": -58.6395,
    "address": "Calle Alberdi 234, Castelar",
    "whatsapp": "541155554512"
  },
  {
    "name": "Fashion Corner",
    "image": "/img/ropa-1.jpeg",
    "category": "Ropa",
    "url": "/negocios/tienda-6.html",
    "hours": "Mon-Sat 10:00-20:00",
    "latitude": -34.6512,
    "longitude": -58.6445,
    "address": "Av. San Martín 567, Castelar",
    "whatsapp": "541155554513"
  },
  {
    "name": "Chic Boutique",
    "image": "/img/ropa-2.jpeg",
    "category": "Ropa",
    "url": "/negocios/tienda-7.html",
    "hours": "Mon-Sat 10:00-21:00",
    "latitude": -34.6498,
    "longitude": -58.6402,
    "address": "Calle Independencia 890, Castelar",
    "whatsapp": "541155554514"
  },
  {
    "name": "Moda Joven",
    "image": "/img/ropa-3.jpeg",
    "category": "Ropa",
    "url": "/negocios/tienda-8.html",
    "hours": "Mon-Sat 10:00-20:00",
    "latitude": -34.6522,
    "longitude": -58.6458,
    "address": "Av. Rivadavia 123, Castelar",
    "whatsapp": "541155554515"
  },
  {
    "name": "Limpieza Express",
    "image": "/img/varios.jpg",
    "category": "Servicios",
    "url": "/negocios/servicios-1.html",
    "hours": "Mon-Fri 09:00-18:00",
    "latitude": -34.6500,
    "longitude": -58.6420,
    "address": "Calle Mitre 456, Castelar",
    "whatsapp": "541155554516"
  },
  {
    "name": "Plomería 24/7",
    "image": "/img/plomero.jpg",
    "category": "Servicios",
    "url": "/negocios/servicios-2.html",
    "hours": "Mon-Sun 08:00-20:00",
    "latitude": -34.6525,
    "longitude": -58.6390,
    "address": "Av. Santa Rosa 789, Castelar",
    "whatsapp": "541155554517"
  },
  {
    "name": "Electricidad Sol",
    "image": "/img/electricista.jpg",
    "category": "Servicios",
    "url": "/negocios/servicios-3.html",
    "hours": "Mon-Fri 08:00-18:00",
    "latitude": -34.6495,
    "longitude": -58.6440,
    "address": "Calle Buenos Aires 234, Castelar",
    "whatsapp": "541155554518"
  },
  {
    "name": "Reparaciones Rápidas",
    "image": "/img/herrero.jpg",
    "category": "Servicios",
    "url": "/negocios/servicios-4.html",
    "hours": "Mon-Sat 09:00-19:00",
    "latitude": -34.6518,
    "longitude": -58.6415,
    "address": "Av. Colón 567, Castelar",
    "whatsapp": "541155554519"
  },
  {
    "name": "ServiHogar",
    "image": "/img/cerrajero.jpg",
    "category": "Servicios",
    "url": "/negocios/servicios-5.html",
    "hours": "Mon-Fri 08:00-17:00",
    "latitude": -34.6532,
    "longitude": -58.6455,
    "address": "Calle Alberdi 901, Castelar",
    "whatsapp": "541155554520"
  },
  {
    "name": "Mantenimiento Total",
    "image": "/img/albañil.jpg",
    "category": "Servicios",
    "url": "/negocios/servicios-6.html",
    "hours": "Mon-Sat 08:00-18:00",
    "latitude": -34.6508,
    "longitude": -58.6408,
    "address": "Av. San Martín 123, Castelar",
    "whatsapp": "541155554521"
  },
  {
    "name": "Soluciones del Hogar",
    "image": "/img/plomero.jpg",
    "category": "Servicios",
    "url": "/negocios/servicios-7.html",
    "hours": "Mon-Fri 09:00-18:00",
    "latitude": -34.6520,
    "longitude": -58.6388,
    "address": "Calle Independencia 456, Castelar",
    "whatsapp": "541155554522"
  },
  {
    "name": "ServiRápido",
    "image": "/img/cerrajero.jpg",
    "category": "Servicios",
    "url": "/negocios/servicios-8.html",
    "hours": "Mon-Sat 08:00-19:00",
    "latitude": -34.6492,
    "longitude": -58.6422,
    "address": "Av. Rivadavia 789, Castelar",
    "whatsapp": "541155554523"
  },
  
  {
    "name": "Carnicería La Pampa",
    "image": "/img/carniceria.jpeg",
    "category": "Carniceria",
    "url": "/negocios/carniceria.html",
    "hours": "Mon-Sat 08:00-20:00",
    "latitude": -34.6532,
    "longitude": -58.6438,
    "address": "Av. San Martín 7373",
    "whatsapp": "541155556666",
    "telefono": "1155556666",
    "icono": "fas fa-drumstick-bite"
  },
  {
    "name": "La Granja",
    "image": "/img/carniceria.jpeg",
    "category": "Carniceria",
    "url": "/negocios/carniceria.html",
    "hours": "Tue-Sun 09:00-19:00",
    "latitude": -34.6540,
    "longitude": -58.6425,
    "address": "Calle 25 de Mayo 7474",
    "whatsapp": "541155556667",
    "telefono": "1155556667",
    "icono": "fas fa-drumstick-bite"
  },
  {
    "name": "Carnicería Central",
    "image": "/img/carniceria.jpeg",
    "category": "Carniceria",
    "url": "/negocios/carniceria.html",
    "hours": "Wed-Mon 08:00-20:00",
    "latitude": -34.6528,
    "longitude": -58.6442,
    "address": "Av. Rivadavia 7575",
    "whatsapp": "541155556668",
    "telefono": "1155556668",
    "icono": "fas fa-drumstick-bite"
  },
  {
    "name": "La Tradicional",
    "image": "/img/carniceria.jpeg",
    "category": "Carniceria",
    "url": "/negocios/carniceria.html",
    "hours": "Thu-Wed 09:00-19:00",
    "latitude": -34.6535,
    "longitude": -58.6430,
    "address": "Calle Belgrano 7676",
    "whatsapp": "541155556669",
    "telefono": "1155556669",
    "icono": "fas fa-drumstick-bite"
  },
  {
    "name": "Carnicería del Barrio",
    "image": "/img/carniceria.jpeg",
    "category": "Carniceria",
    "url": "/negocios/carniceria.html",
    "hours": "Fri-Thu 08:00-20:00",
    "latitude": -34.6542,
    "longitude": -58.6420,
    "address": "Av. Eva Perón 7777",
    "whatsapp": "541155556670",
    "telefono": "1155556670",
    "icono": "fas fa-drumstick-bite"
  },
  {
    "name": "La Carnicería",
    "image": "/img/carniceria.jpeg",
    "category": "Carniceria",
    "url": "/negocios/carniceria.html",
    "hours": "Sat-Fri 09:00-19:00",
    "latitude": -34.6525,
    "longitude": -58.6445,
    "address": "Calle Mitre 7878",
    "whatsapp": "541155556671",
    "telefono": "1155556671",
    "icono": "fas fa-drumstick-bite"
  },
  {
    "name": "Carnicería Express",
    "image": "/img/carniceria.jpeg",
    "category": "Carniceria",
    "url": "/negocios/carniceria.html",
    "hours": "Sun-Sat 08:00-20:00",
    "latitude": -34.6538,
    "longitude": -58.6428,
    "address": "Av. Colón 7979",
    "whatsapp": "541155556672",
    "telefono": "1155556672",
    "icono": "fas fa-drumstick-bite"
  },
  {
    "name": "La Pampa II",
    "image": "/img/carniceria.jpeg",
    "category": "Carniceria",
    "url": "/negocios/carniceria.html",
    "hours": "Mon-Sun 09:00-19:00",
    "latitude": -34.6530,
    "longitude": -58.6435,
    "address": "Calle Sarmiento 8080",
    "whatsapp": "541155556673",
    "telefono": "1155556673",
    "icono": "fas fa-drumstick-bite"
  },
  {
    "name": "Dr. Pérez - Médico",
    "image": "/img/profesiones.jpeg",
    "category": "Servicios",
    "url": "/negocios/medico.html",
    "hours": "Mon-Fri 09:00-17:00",
    "latitude": -34.6533,
    "longitude": -58.6439,
    "address": "Av. San Martín 8181",
    "whatsapp": "541155557777",
    "telefono": "1155557777",
    "icono": "fas fa-user-md"
  },
  {
    "name": "Arq. López - Arquitecto",
    "image": "/img/profesiones.jpeg",
    "category": "Servicios",
    "url": "/negocios/arquitecto.html",
    "hours": "Tue-Sat 10:00-18:00",
    "latitude": -34.6541,
    "longitude": -58.6426,
    "address": "Calle 25 de Mayo 8282",
    "whatsapp": "541155557778",
    "telefono": "1155557778",
    "icono": "fas fa-ruler-combined"
  },
  {
    "name": "Ing. Rodríguez - Ingeniero",
    "image": "/img/profesiones.jpeg",
    "category": "Servicios",
    "url": "/negocios/ingeniero.html",
    "hours": "Wed-Sun 08:00-16:00",
    "latitude": -34.6529,
    "longitude": -58.6443,
    "address": "Av. Rivadavia 8383",
    "whatsapp": "541155557779",
    "telefono": "1155557779",
    "icono": "fas fa-cogs"
  },
  {
    "name": "Abog. Martínez - Abogado",
    "image": "/img/profesiones.jpeg",
    "category": "Servicios",
    "url": "/negocios/abogado.html",
    "hours": "Thu-Mon 09:00-17:00",
    "latitude": -34.6536,
    "longitude": -58.6431,
    "address": "Calle Belgrano 8484",
    "whatsapp": "541155557780",
    "telefono": "1155557780",
    "icono": "fas fa-gavel"
  },
  {
    "name": "Cont. González - Contador",
    "image": "/img/profesiones.jpeg",
    "category": "Servicios",
    "url": "/negocios/contador.html",
    "hours": "Fri-Tue 10:00-18:00",
    "latitude": -34.6543,
    "longitude": -58.6421,
    "address": "Av. Eva Perón 8585",
    "whatsapp": "541155557781",
    "telefono": "1155557781",
    "icono": "fas fa-calculator"
  },
  {
    "name": "Dra. Sánchez - Dentista",
    "image": "/img/profesiones.jpeg",
    "category": "Servicios",
    "url": "/negocios/dentista.html",
    "hours": "Sat-Wed 08:00-16:00",
    "latitude": -34.6526,
    "longitude": -58.6446,
    "address": "Calle Mitre 8686",
    "whatsapp": "541155557782",
    "telefono": "1155557782",
    "icono": "fas fa-tooth"
  },
  {
    "name": "Psic. Fernández - Psicólogo",
    "image": "/img/profesiones.jpeg",
    "category": "Servicios",
    "url": "/negocios/psicologo.html",
    "hours": "Sun-Thu 09:00-17:00",
    "latitude": -34.6539,
    "longitude": -58.6429,
    "address": "Av. Colón 8787",
    "whatsapp": "541155557783",
    "telefono": "1155557783",
    "icono": "fas fa-brain"
  },
  {
    "name": "Lic. Díaz - Licenciado",
    "image": "/img/profesiones.jpeg",
    "category": "Servicios",
    "url": "/negocios/licenciado.html",
    "hours": "Mon-Fri 10:00-18:00",
    "latitude": -34.6531,
    "longitude": -58.6436,
    "address": "Calle Sarmiento 8888",
    "whatsapp": "541155557784",
    "telefono": "1155557784",
    "icono": "fas fa-graduation-cap"
  }
]


