[
  {
    "id": "floreria-01",
    "nombre": "Florería del Sol",
    "horario": "Lunes a Sábados: 8am - 20pm",
    "horarioData": "Mon-Sat 8:00-20:00",
    "telefono": "11 5555 1111",
    "whatsapp": "5491155551111",
    "pagina": "negocios/floreria-sol.html",
    "imagen": "img/floreria.webp",
     "icono": "fas fa-cut",
      "rubro": "Barbería",
    "direccion": "Av. Rivadavia 300",
    "latitud": -34.6525,
    "longitud": -58.6435
  },
  {
    "id": "floreria-02",
     "icono": "fas fa-cut",
      "rubro": "Barbería",
    "nombre": "Florería Central",
    "horario": "Lunes a Domingo: 9am - 21pm",
    "horarioData": "Mon-Sun 9:00-21:00",
    "telefono": "11 5555 2222",
    "whatsapp": "5491155552222",
    "pagina": "floreria-central.html",
    "imagen": "img/floreria.webp",
    "direccion": "Calle San Martín 800",
    "latitud": -34.6530,
    "longitud": -58.6440
  },
  {
    "id": "floreria-03",
     "icono": "fas fa-cut",
      "rubro": "Barbería",
    "nombre": "Florería Bella",
    "horario": "Lunes a Viernes: 7am - 20pm, Sábados: 8am - 14pm",
    "horarioData": "Mon-Fri 7:00-20:00, Sat 8:00-14:00",
    "telefono": "11 5555 3333",
    "whatsapp": "5491155553333",
    "pagina": "floreria-bella.html",
    "imagen": "img/floreria.webp",
    "direccion": "Calle Mitre 900",
    "latitud": -34.6515,
    "longitud": -58.6425
  },
  {
    "id": "floreria-04",
     "icono": "fas fa-cut",
      "rubro": "Barbería",
    "nombre": "Florería Natural",
    "horario": "Martes a Domingo: 8am - 19pm",
    "horarioData": "Tue-Sun 8:00-19:00",
    "telefono": "11 5555 4444",
    "whatsapp": "5491155554444",
    "pagina": "floreria-natural.html",
     "imagen": "img/floreria.webp",
    "direccion": "Av. Sarmiento 300",
    "latitud": -34.6540,
    "longitud": -58.6450
  },
  {
    "id": "floreria-05",
     "icono": "fas fa-cut",
      "rubro": "Barbería",
    "nombre": "Florería de la Plaza",
    "horario": "Lunes a Sábados: 8am - 22pm",
    "horarioData": "Mon-Sat 8:00-22:00",
    "telefono": "11 5555 5555",
    "whatsapp": "5491155555555",
    "pagina": "floreria-plaza.html",
    "imagen": "img/floreria.webp",
    "direccion": "Plaza Principal 20",
    "latitud": -34.6505,
    "longitud": -58.6415
  },
  {
    "id": "floreria-06",
     "icono": "fas fa-cut",
      "rubro": "Barbería",
    "nombre": "Florería Express",
    "horario": "Lunes a Viernes: 7:30am - 20:30pm",
    "horarioData": "Mon-Fri 7:30-20:30",
    "telefono": "11 5555 6666",
    "whatsapp": "5491155556666",
    "pagina": "floreria-express.html",
     "imagen": "img/floreria.webp",
    "direccion": "Calle Alsina 400",
    "latitud": -34.6535,
    "longitud": -58.6445
  },
  {
    "id": "floreria-07",
     "icono": "fas fa-cut",
      "rubro": "Barbería",
    "nombre": "Florería Premium",
    "horario": "Lunes a Sábados: 9am - 21pm",
    "horarioData": "Mon-Sat 9:00-21:00",
    "telefono": "11 5555 7777",
    "whatsapp": "5491155557777",
    "pagina": "floreria-premium.html",
    "imagen": "img/floreria.webp",
    "direccion": "Av. Rivadavia 600",
    "latitud": -34.6520,
    "longitud": -58.6430
  },
  {
    "id": "floreria-08",
     "icono": "fas fa-cut",
      "rubro": "Barbería",
    "nombre": "Florería Romántica",
    "horario": "Miércoles a Lunes: 8am - 20pm",
    "horarioData": "Wed-Mon 8:00-20:00",
    "telefono": "11 5555 8888",
    "whatsapp": "5491155558888",
    "pagina": "negocios/floreria-romantica.html",
    "imagen": "img/floreria.webp",
    "direccion": "Calle San Martín 850",
    "latitud": -34.6510,
    "longitud": -58.6420
  }
]