[
    {
      "id": "tienda-01",
      "nombre": "Tienda del Barrio",
      "imagen": "img/ropa.webp",
      "horario": "Lunes a Sábados: 8am - 8pm",
      "horarioData": "Mon-Sat 08:00-20:00",
      "telefono": "11 5555 4444",
      "whatsapp": "541155554444",
      "pagina": "negocios/tienda.html",
      "icono": "fas fa-tshirt",
      "rubro": "Tienda",
      "direccion": "Av. San Martín 5757",
      "latitud": -34.6530,
      "longitud": -58.6436
    },
    {
      "id": "tienda-02",
      "nombre": "Moda Urbana",
      "imagen": "img/ropa-1.webp",
      "horario": "Martes a Domingos: 9am - 7pm",
      "horarioData": "Tue-Sun 09:00-19:00",
      "telefono": "11 5555 4445",
      "whatsapp": "541155554445",
      "pagina": "/negocios/tienda-de-ropa.html",
      "icono": "fas fa-tshirt",
      "rubro": "Tienda",
      "direccion": "Calle 25 de Mayo 5858",
      "latitud": -34.6538,
      "longitud": -58.6423
    },
    {
      "id": "tienda-03",
      "nombre": "Tienda Central",
      "imagen": "img/ropa-2.webp",
      "horario": "Miércoles a Lunes: 8am - 8pm",
      "horarioData": "Wed-Mon 08:00-20:00",
      "telefono": "11 5555 4446",
      "whatsapp": "541155554446",
      "pagina": "/negocios/tienda.html",
      "icono": "fas fa-tshirt",
      "rubro": "Tienda",
      "direccion": "Av. Rivadavia 5959",
      "latitud": -34.6526,
      "longitud": -58.6440
    },
    {
      "id": "tienda-04",
      "nombre": "Ropa y Más",
      "imagen": "img/ropa-3.webp",
      "horario": "Jueves a Miércoles: 9am - 7pm",
      "horarioData": "Thu-Wed 09:00-19:00",
      "telefono": "11 5555 4447",
      "whatsapp": "541155554447",
      "pagina": "/negocios/tienda.html",
      "icono": "fas fa-tshirt",
      "rubro": "Tienda",
      "direccion": "Calle Belgrano 6060",
      "latitud": -34.6533,
      "longitud": -58.6428
    },
    {
      "id": "tienda-05",
      "nombre": "Tienda Express",
      "imagen": "img/ropa-5.webp",
      "horario": "Viernes a Jueves: 8am - 8pm",
      "horarioData": "Fri-Thu 08:00-20:00",
      "telefono": "11 5555 4448",
      "whatsapp": "541155554448",
      "pagina": "/negocios/tienda.html",
      "icono": "fas fa-tshirt",
      "rubro": "Tienda",
      "direccion": "Av. Eva Perón 6161",
      "latitud": -34.6540,
      "longitud": -58.6418
    },
    {
      "id": "tienda-06",
      "nombre": "Moda del Siglo",
      "imagen": "img/ropa.webp",
      "horario": "Sábado a Viernes: 9am - 7pm",
      "horarioData": "Sat-Fri 09:00-19:00",
      "telefono": "11 5555 4449",
      "whatsapp": "541155554449",
      "pagina": "/negocios/tienda.html",
      "icono": "fas fa-tshirt",
      "rubro": "Tienda",
      "direccion": "Calle Mitre 6262",
      "latitud": -34.6523,
      "longitud": -58.6443
    },
    {
      "id": "tienda-07",
      "nombre": "Tienda del Pueblo",
      "imagen": "img/ropa-1.webp",
      "horario": "Domingo a Sábado: 8am - 8pm",
      "horarioData": "Sun-Sat 08:00-20:00",
      "telefono": "11 5555 4450",
      "whatsapp": "541155554450",
      "pagina": "/negocios/tienda.html",
      "icono": "fas fa-tshirt",
      "rubro": "Tienda",
      "direccion": "Av. Colón 6363",
      "latitud": -34.6536,
      "longitud": -58.6426
    },
    {
      "id": "tienda-08",
      "nombre": "La Tienda",
      "imagen": "img/ropa-3.webp",
      "horario": "Lunes a Domingo: 9am - 7pm",
      "horarioData": "Mon-Sun 09:00-19:00",
      "telefono": "11 5555 4451",
      "whatsapp": "541155554451",
      "pagina": "/negocios/tienda.html",
      "icono": "fas fa-tshirt",
      "rubro": "Tienda",
      "direccion": "Calle Sarmiento 6464",
      "latitud": -34.6528,
      "longitud": -58.6433
    }
  ]