[
    {
      "id": "verduleria-01",
      "nombre": "Verdulería El Huerto",
      "imagen": "img/verduleria-1.webp",
      "horario": "Lunes a Sábados: 8am - 8pm",
      "horarioData": "Mon-Sat 08:00-20:00",
      "telefono": "11 5555 8888",
      "whatsapp": "541155558888",
      "pagina": "negocios/verduleria-2.html",
      "icono": "fas fa-carrot",
      "rubro": "Verdulería",
      "direccion": "Av. San Martín 999",
      "latitud": -34.6524,
      "longitud": -58.6430
    },
    {
      "id": "verduleria-02",
      "nombre": "El Huerto",
      "imagen": "img/verduleria-2.webp",
      "horario": "Martes a Domingos: 9am - 7pm",
      "horarioData": "Tue-Sun 09:00-19:00",
      "telefono": "11 5555 8889",
      "whatsapp": "541155558889",
      "pagina": "negocios/verduleria-1.html",
      "icono": "fas fa-carrot",
      "rubro": "Verdulería",
      "direccion": "Calle 25 de Mayo 1010",
      "latitud": -34.6532,
      "longitud": -58.6417
    },
    {
      "id": "verduleria-03",
      "nombre": "Verde Natural",
      "imagen": "img/verduleria-3.webp",
      "horario": "Miércoles a Lunes: 8am - 8pm",
      "horarioData": "Wed-Mon 08:00-20:00",
      "telefono": "11 5555 8890",
      "whatsapp": "541155558890",
      "pagina": "negocios/verduleria.html",
      "icono": "fas fa-carrot",
      "rubro": "Verdulería",
      "direccion": "Av. Rivadavia 1111",
      "latitud": -34.6520,
      "longitud": -58.6434
    },
    {
      "id": "verduleria-04",
      "nombre": "Frutas y Verduras La Esquina",
      "imagen": "img/verduleria-4.webp",
      "horario": "Jueves a Miércoles: 9am - 7pm",
      "horarioData": "Thu-Wed 09:00-19:00",
      "telefono": "11 5555 8891",
      "whatsapp": "541155558891",
      "pagina": "/negocios/verduleria.html",
      "icono": "fas fa-carrot",
      "rubro": "Verdulería",
      "direccion": "Calle Belgrano 1212",
      "latitud": -34.6527,
      "longitud": -58.6422
    },
    {
      "id": "verduleria-05",
      "nombre": "Verdulería Central",
      "imagen": "img/verduleria-1.webp",
      "horario": "Viernes a Jueves: 8am - 8pm",
      "horarioData": "Fri-Thu 08:00-20:00",
      "telefono": "11 5555 8892",
      "whatsapp": "541155558892",
      "pagina": "/negocios/verduleria.html",
      "icono": "fas fa-carrot",
      "rubro": "Verdulería",
      "direccion": "Av. Eva Perón 1313",
      "latitud": -34.6534,
      "longitud": -58.6412
    },
    {
      "id": "verduleria-06",
      "nombre": "Verduras Frescas",
      "imagen": "img/verduleria-2.webp",
      "horario": "Sábado a Viernes: 9am - 7pm",
      "horarioData": "Sat-Fri 09:00-19:00",
      "telefono": "11 5555 8893",
      "whatsapp": "541155558893",
      "pagina": "/negocios/verduleria.html",
      "icono": "fas fa-carrot",
      "rubro": "Verdulería",
      "direccion": "Calle Mitre 1414",
      "latitud": -34.6517,
      "longitud": -58.6437
    },
    {
      "id": "verduleria-07",
      "nombre": "Verdulería del Barrio",
      "imagen": "img/verduleria-3.webp",
      "horario": "Domingo a Sábado: 8am - 8pm",
      "horarioData": "Sun-Sat 08:00-20:00",
      "telefono": "11 5555 8894",
      "whatsapp": "541155558894",
      "pagina": "/negocios/verduleria.html",
      "icono": "fas fa-carrot",
      "rubro": "Verdulería",
      "direccion": "Av. Colón 1515",
      "latitud": -34.6530,
      "longitud": -58.6420
    },
    {
      "id": "verduleria-08",
      "nombre": "Frutas y Verduras Don Juan",
      "imagen": "img/verduleria-4.webp",
      "horario": "Lunes a Domingo: 9am - 7pm",
      "horarioData": "Mon-Sun 09:00-19:00",
      "telefono": "11 5555 8895",
      "whatsapp": "541155558895",
      "pagina": "/negocios/verduleria.html",
      "icono": "fas fa-carrot",
      "rubro": "Verdulería",
      "direccion": "Calle Sarmiento 1616",
      "latitud": -34.6522,
      "longitud": -58.6427
    }
  ]